{"澎湖縣": {"白沙鄉": {"Longitude": "119.599202", "Address": "澎湖縣白沙鄉赤崁村366號", "Latitude": "23.667179", "Name": "白沙鄉公所"}, "七美鄉": {"Longitude": "119.441992", "Address": "澎湖縣七美鄉中和村10號", "Latitude": "23.220302", "Name": "七美鄉公所"}, "西嶼鄉": {"Longitude": "119.512221", "Address": "澎湖縣西嶼鄉池東村72號", "Latitude": "23.601714", "Name": "西嶼鄉公所"}, "馬公市": {"Longitude": "119.578661", "Address": "澎湖縣馬公市永福街30號", "Latitude": "23.566112", "Name": "馬公市公所"}, "望安鄉": {"Longitude": "119.50036", "Address": "澎湖縣望安鄉東安村73之7號", "Latitude": "23.357353", "Name": "望安鄉公所"}, "湖西鄉": {"Longitude": "119.625273", "Address": "澎湖縣湖西鄉湖西43之11號", "Latitude": "23.603418", "Name": "湖西鄉公所"}}, "金門縣": {"金寧鄉": {"Longitude": "118.305852", "Address": "金門縣金寧鄉仁愛新村1號", "Latitude": "24.456577", "Name": "金寧鄉公所"}, "金沙鎮": {"Longitude": "118.421308", "Address": "金門縣金沙鎮環島東路一段112號2樓", "Latitude": "24.484107", "Name": "金沙鎮公所"}, "金城鎮": {"Longitude": "118.32053", "Address": "金門縣金城鎮民生路2號", "Latitude": "24.432653", "Name": "金城鎮公所"}, "烈嶼鄉": {"Longitude": "118.247546", "Address": "金門縣烈嶼鄉西路60號", "Latitude": "24.428857", "Name": "烈嶼鄉公所"}, "烏坵鄉": {"Longitude": "119.4515802", "Address": "金門縣烏坵鄉大坵村1號", "Latitude": "24.9912766", "Name": "烏坵鄉公所"}, "金湖鎮": {"Longitude": "118.4146118", "Address": "金門縣金湖鎮新市里林森路2號", "Latitude": "24.4414388", "Name": "金湖鎮公所"}}, "屏東縣": {"竹田鄉": {"Longitude": "120.54398", "Address": "屏東縣竹田鄉中正路123號", "Latitude": "22.584724", "Name": "竹田鄉公所"}, "里港鄉": {"Longitude": "120.49447", "Address": "屏東縣里港鄉中山路104號", "Latitude": "22.779166", "Name": "里港鄉公所"}, "林邊鄉": {"Longitude": "120.514275", "Address": "屏東縣林邊鄉中山路279號", "Latitude": "22.43495", "Name": "林邊鄉公所"}, "長治鄉": {"Longitude": "120.527296", "Address": "屏東縣長治鄉潭頭路1號", "Latitude": "22.676534", "Name": "長治鄉公所"}, "高樹鄉": {"Longitude": "120.600739", "Address": "屏東縣高樹鄉興中路330號", "Latitude": "22.826401", "Name": "高樹鄉公所"}, "萬丹鄉": {"Longitude": "120.488495", "Address": "屏東縣萬丹鄉和平西路155號", "Latitude": "22.588593", "Name": "萬丹鄉公所"}, "枋寮鄉": {"Longitude": "120.593494", "Address": "屏東縣枋寮鄉德興路36號", "Latitude": "22.365509", "Name": "枋寮鄉公所"}, "三地門鄉": {"Longitude": "120.654221", "Address": "屏東縣三地門鄉中正路二段100號", "Latitude": "22.716324", "Name": "三地門鄉公所"}, "恆春鎮": {"Longitude": "120.747246", "Address": "屏東縣恆春鎮天文路1號", "Latitude": "22.00374", "Name": "恆春鎮公所"}, "麟洛鄉": {"Longitude": "120.5272056", "Address": "屏東縣麟洛鄉麟蹄村中山路158號", "Latitude": "22.6506473", "Name": "麟洛鄉公所"}, "新園鄉": {"Longitude": "120.461491", "Address": "屏東縣新園鄉仙吉路148號", "Latitude": "22.543835", "Name": "新園鄉公所"}, "車城鄉": {"Longitude": "120.7150386", "Address": "屏東縣車城鄉福興村仁愛路26號", "Latitude": "22.0727083", "Name": "車城鄉公所"}, "東港鎮": {"Longitude": "120.454361", "Address": "屏東縣東港鎮中山路2之100號", "Latitude": "22.466685", "Name": "東港鎮公所"}, "瑪家鄉": {"Longitude": "120.677505", "Address": "屏東縣瑪家鄉風景巷85號", "Latitude": "22.676593", "Name": "瑪家鄉公所"}, "牡丹鄉": {"Longitude": "120.7742858", "Address": "屏東縣牡丹鄉石門村26號", "Latitude": "22.1261721", "Name": "牡丹鄉公所"}, "萬巒鄉": {"Longitude": "120.567798", "Address": "屏東縣萬巒鄉中正路36號", "Latitude": "22.572704", "Name": "萬巒鄉公所"}, "崁頂鄉": {"Longitude": "120.5140493", "Address": "屏東縣崁頂鄉中正路230號", "Latitude": "22.5147343", "Name": "崁頂鄉公所"}, "新埤鄉": {"Longitude": "120.549982", "Address": "屏東縣新埤鄉中正路40號", "Latitude": "22.470227", "Name": "新埤鄉公所"}, "枋山鄉": {"Longitude": "120.652351", "Address": "屏東縣枋山鄉枋山路82號", "Latitude": "22.264049", "Name": "枋山鄉公所"}, "春日鄉": {"Longitude": "120.629085", "Address": "屏東縣春日鄉春日路322號", "Latitude": "22.370984", "Name": "春日鄉公所"}, "泰武鄉": {"Longitude": "120.625312", "Address": "屏東縣泰武鄉佳平村169號", "Latitude": "22.589767", "Name": "泰武鄉公所"}, "霧台鄉": {"Longitude": "120.727769", "Address": "屏東縣霧台鄉神山巷73號", "Latitude": "22.751073", "Name": "霧台鄉公所"}, "屏東市": {"Longitude": "120.491381", "Address": "屏東縣屏東市台糖街61號", "Latitude": "22.662415", "Name": "屏東市公所"}, "獅子鄉": {"Longitude": "120.705438", "Address": "屏東縣獅子鄉楓林村2巷26號", "Latitude": "22.201775", "Name": "獅子鄉公所"}, "佳冬鄉": {"Longitude": "120.55242", "Address": "屏東縣佳冬鄉佳昌路2號", "Latitude": "22.419209", "Name": "佳冬鄉公所"}, "鹽埔鄉": {"Longitude": "120.5797216", "Address": "屏東縣鹽埔鄉鹽北村勝利路193號", "Latitude": "22.7600496", "Name": "鹽埔鄉公所"}, "南州鄉": {"Longitude": "120.509884", "Address": "屏東縣南州鄉仁里路11號", "Latitude": "22.490387", "Name": "南州鄉公所"}, "琉球鄉": {"Longitude": "120.382621", "Address": "屏東縣琉球鄉中福村行政路12號", "Latitude": "22.3484609", "Name": "琉球鄉公所"}, "滿州鄉": {"Longitude": "120.838632", "Address": "屏東縣滿州鄉中山路43號", "Latitude": "22.020813", "Name": "滿州鄉公所"}, "九如鄉": {"Longitude": "120.490416", "Address": "屏東縣九如鄉九如路二段416號", "Latitude": "22.740336", "Name": "九如鄉公所"}, "內埔鄉": {"Longitude": "120.566829", "Address": "屏東縣內埔鄉廣濟路26號", "Latitude": "22.612005", "Name": "內埔鄉公所"}, "來義鄉": {"Longitude": "120.6314673", "Address": "屏東縣來義鄉古樓村中正路94號", "Latitude": "22.5258076", "Name": "來義鄉公所"}, "潮州鎮": {"Longitude": "120.542905", "Address": "屏東縣潮州鎮中山路38號", "Latitude": "22.549893", "Name": "潮州鎮公所"}}, "台北市": {"士林區": {"Longitude": "121.5195592", "Address": "台北市士林區中正路439號", "Latitude": "25.0927619", "Name": "士林區公所"}, "南港區": {"Longitude": "121.6068", "Address": "台北市南港區南港路一段360號6樓", "Latitude": "25.054524", "Name": "南港區公所"}, "中正區": {"Longitude": "121.518347", "Address": "台北市中正區羅斯福路一段8號6樓", "Latitude": "25.032211", "Name": "中正區公所"}, "信義區": {"Longitude": "121.566847", "Address": "台北市信義區信義路五段15號6樓", "Latitude": "25.033327", "Name": "信義區公所"}, "文山區": {"Longitude": "121.570083", "Address": "台北市文山區木柵路三段220號8樓", "Latitude": "24.98964", "Name": "文山區公所"}, "萬華區": {"Longitude": "121.499888", "Address": "台北市萬華區和平西路三段120號10樓", "Latitude": "25.035002", "Name": "萬華區公所"}, "北投區": {"Longitude": "121.503017", "Address": "台北市北投區新市街30號4樓", "Latitude": "25.132431", "Name": "北投區公所"}, "大同區": {"Longitude": "121.515106", "Address": "台北市大同區昌吉街57號4樓", "Latitude": "25.066061", "Name": "大同區公所"}, "松山區": {"Longitude": "121.57726", "Address": "台北市松山區八德路四段692號9樓", "Latitude": "25.049907", "Name": "松山區公所"}, "內湖區": {"Longitude": "121.589086", "Address": "台北市內湖區民權東路六段99號4樓", "Latitude": "25.069319", "Name": "內湖區公所"}, "中山區": {"Longitude": "121.533457", "Address": "台北市中山區松江路367號", "Latitude": "25.064426", "Name": "中山區公所"}, "大安區": {"Longitude": "121.534511", "Address": "台北市大安區新生南路二段86號8樓", "Latitude": "25.02642", "Name": "大安區公所"}}, "新北市": {"平溪區": {"Longitude": "121.738492", "Address": "新北市平溪區平溪街45號", "Latitude": "25.026322", "Name": "平溪區公所"}, "三芝區": {"Longitude": "121.500829", "Address": "新北市三芝區中山路一段32號", "Latitude": "25.257653", "Name": "三芝區公所"}, "中和區": {"Longitude": "121.500754", "Address": "新北市中和區景平路634之2號", "Latitude": "24.998629", "Name": "中和區公所"}, "金山區": {"Longitude": "121.636761", "Address": "新北市金山區中正路11號", "Latitude": "25.222389", "Name": "金山區公所"}, "貢寮區": {"Longitude": "121.91029", "Address": "新北市貢寮區朝陽街54號", "Latitude": "25.021796", "Name": "貢寮區公所"}, "深坑區": {"Longitude": "121.616153", "Address": "新北市深坑區深坑街10號", "Latitude": "25.002447", "Name": "深坑區公所"}, "泰山區": {"Longitude": "121.431474", "Address": "新北市泰山區明志路一段322號", "Latitude": "25.059181", "Name": "泰山區公所"}, "雙溪區": {"Longitude": "121.865664", "Address": "新北市雙溪區東榮街25號", "Latitude": "25.034051", "Name": "雙溪區公所"}, "林口區": {"Longitude": "121.388015", "Address": "新北市林口區仁愛路一段378號", "Latitude": "25.076695", "Name": "林口區公所"}, "蘆洲區": {"Longitude": "121.473843", "Address": "新北市蘆洲區三民路95號", "Latitude": "25.084708", "Name": "蘆洲區公所"}, "石門區": {"Longitude": "121.566768", "Address": "新北市石門區中山路66號", "Latitude": "25.29047", "Name": "石門區公所"}, "萬里區": {"Longitude": "121.689489", "Address": "新北市萬里區瑪鋉路123號", "Latitude": "25.177689", "Name": "萬里區公所"}, "新莊區": {"Longitude": "121.4503843", "Address": "新北市新莊區中正路176號", "Latitude": "25.0358197", "Name": "新莊區公所"}, "汐止區": {"Longitude": "121.6588824", "Address": "新北市汐止區新台五路一段268號", "Latitude": "25.0638029", "Name": "汐止區公所"}, "烏來區": {"Longitude": "121.551415", "Address": "新北市烏來區堰堤48號", "Latitude": "24.862974", "Name": "烏來區公所"}, "五股區": {"Longitude": "121.438078", "Address": "新北市五股區中興路四段50號", "Latitude": "25.083039", "Name": "五股區公所"}, "鶯歌區": {"Longitude": "121.354434", "Address": "新北市鶯歌區仁愛路55號", "Latitude": "24.955861", "Name": "鶯歌區公所"}, "新店區": {"Longitude": "121.543145", "Address": "新北市新店區北新路2段128號5樓", "Latitude": "24.975087", "Name": "新店區公所"}, "樹林區": {"Longitude": "121.424568", "Address": "新北市樹林區鎮前街93號", "Latitude": "24.989909", "Name": "樹林區公所"}, "坪林區": {"Longitude": "121.711904", "Address": "新北市坪林區坪林街101號", "Latitude": "24.936151", "Name": "坪林區公所"}, "淡水區": {"Longitude": "121.441205", "Address": "新北市淡水區中正路65號", "Latitude": "25.169518", "Name": "淡水區公所"}, "土城區": {"Longitude": "121.442846", "Address": "新北市土城區金城路一段101號", "Latitude": "24.97265", "Name": "土城區公所"}, "板橋區": {"Longitude": "121.459243", "Address": "新北市板橋區府中路30號", "Latitude": "25.009623", "Name": "板橋區公所"}, "瑞芳區": {"Longitude": "121.809849", "Address": "新北市瑞芳區逢甲路82號", "Latitude": "25.108752", "Name": "瑞芳區公所"}, "八里區": {"Longitude": "121.398749", "Address": "新北市八里區中山路二段356巷16號", "Latitude": "25.14774", "Name": "八里區公所"}, "永和區": {"Longitude": "121.520357", "Address": "新北市永和區竹林路200號", "Latitude": "25.009162", "Name": "永和區公所"}, "三重區": {"Longitude": "121.488333", "Address": "新北市三重區新北大道一段11號", "Latitude": "25.061344", "Name": "三重區公所"}, "石碇區": {"Longitude": "121.657824", "Address": "新北市石碇區石崁25號", "Latitude": "24.991385", "Name": "石碇區公所"}, "三峽區": {"Longitude": "121.368904", "Address": "新北市三峽區中山路17號", "Latitude": "24.934109", "Name": "三峽區公所"}}, "嘉義縣": {"鹿草鄉": {"Longitude": "120.300303", "Address": "嘉義縣鹿草鄉西井村287號", "Latitude": "23.418419", "Name": "鹿草鄉公所"}, "西區區": {"Longitude": "120.435551", "Address": "嘉義縣嘉義市西區錦州二街28號3樓", "Latitude": "23.464375", "Name": "西區區公所"}, "大埔鄉": {"Longitude": "120.593563", "Address": "嘉義縣大埔鄉大埔村54號", "Latitude": "23.294754", "Name": "大埔鄉公所"}, "東區區": {"Longitude": "120.453347", "Address": "嘉義縣嘉義市東區吳鳳北路184號", "Latitude": "23.478249", "Name": "東區區公所"}, "布袋鎮": {"Longitude": "120.166956", "Address": "嘉義縣布袋鎮自由路2號", "Latitude": "23.378173", "Name": "布袋鎮公所"}, "民雄鄉": {"Longitude": "120.428449", "Address": "嘉義縣民雄鄉文化路7號", "Latitude": "23.551539", "Name": "民雄鄉公所"}, "溪口鄉": {"Longitude": "120.392323", "Address": "嘉義縣溪口鄉中山路89號", "Latitude": "23.60253", "Name": "溪口鄉公所"}, "番路鄉": {"Longitude": "120.554314", "Address": "嘉義縣番路鄉菜公店101號", "Latitude": "23.464418", "Name": "番路鄉公所"}, "水上鄉": {"Longitude": "120.398077", "Address": "嘉義縣水上鄉正義路141號", "Latitude": "23.428317", "Name": "水上鄉公所"}, "東石鄉": {"Longitude": "120.140057", "Address": "嘉義縣東石鄉東石村3號", "Latitude": "23.453268", "Name": "東石鄉公所"}, "新港鄉": {"Longitude": "120.347804", "Address": "嘉義縣新港鄉中山路155號", "Latitude": "23.551974", "Name": "新港鄉公所"}, "大林鎮": {"Longitude": "120.471178", "Address": "嘉義縣大林鎮中興路二段239號", "Latitude": "23.603931", "Name": "大林鎮公所"}, "梅山鄉": {"Longitude": "120.555685", "Address": "嘉義縣梅山鄉中山路282號", "Latitude": "23.5852408", "Name": "梅山鄉公所"}, "竹崎鄉": {"Longitude": "120.5513023", "Address": "嘉義縣竹崎鄉中山路59號", "Latitude": "23.5231197", "Name": "竹崎鄉公所"}, "義竹鄉": {"Longitude": "120.241176", "Address": "嘉義縣義竹鄉仁里村389號", "Latitude": "23.338417", "Name": "義竹鄉公所"}, "六腳鄉": {"Longitude": "120.293094", "Address": "嘉義縣六腳鄉蒜頭村73號", "Latitude": "23.49641", "Name": "六腳鄉公所"}, "阿里山鄉": {"Longitude": "120.713522", "Address": "嘉義縣阿里山鄉樂野村69號", "Latitude": "23.471212", "Name": "阿里山鄉公所"}, "中埔鄉": {"Longitude": "120.517286", "Address": "嘉義縣中埔鄉中埔村128號", "Latitude": "23.423215", "Name": "中埔鄉公所"}, "朴子市": {"Longitude": "120.2469645", "Address": "嘉義縣朴子市光復路34號", "Latitude": "23.4651055", "Name": "朴子市公所"}, "太保市": {"Longitude": "120.332348", "Address": "嘉義縣太保市太保里66號", "Latitude": "23.458967", "Name": "太保市公所"}}, "新竹縣": {"關西鎮": {"Longitude": "121.175851", "Address": "新竹縣關西鎮正義路51號", "Latitude": "24.792411", "Name": "關西鎮公所"}, "新豐鄉": {"Longitude": "120.985193", "Address": "新竹縣新豐鄉新市路93號", "Latitude": "24.90081", "Name": "新豐鄉公所"}, "橫山鄉": {"Longitude": "121.141496", "Address": "新竹縣橫山鄉新興街110號", "Latitude": "24.716779", "Name": "橫山鄉公所"}, "竹北市": {"Longitude": "121.0040288", "Address": "新竹縣竹北市中正西路50號", "Latitude": "24.8396236", "Name": "竹北市公所"}, "東區區": {"Longitude": "120.973424", "Address": "新竹縣新竹市東區民族路40號", "Latitude": "24.805325", "Name": "東區區公所"}, "竹東鎮": {"Longitude": "121.0917386", "Address": "新竹縣竹東鎮東林路88號", "Latitude": "24.7369818", "Name": "竹東鎮公所"}, "新埔鎮": {"Longitude": "121.071303", "Address": "新竹縣新埔鎮中正路776號", "Latitude": "24.827953", "Name": "新埔鎮公所"}, "峨眉鄉": {"Longitude": "121.019595", "Address": "新竹縣峨眉鄉峨眉街8號", "Latitude": "24.688792", "Name": "峨眉鄉公所"}, "湖口鄉": {"Longitude": "121.04789", "Address": "新竹縣湖口鄉中央街1號", "Latitude": "24.901024", "Name": "湖口鄉公所"}, "寶山鄉": {"Longitude": "120.9910258", "Address": "新竹縣寶山鄉雙溪村雙園路2段325號", "Latitude": "24.7656558", "Name": "寶山鄉公所"}, "香山區": {"Longitude": "120.941963", "Address": "新竹縣新竹市香山區牛埔路446號", "Latitude": "24.797163", "Name": "香山區公所"}, "北區區": {"Longitude": "120.970309", "Address": "新竹縣新竹市北區國華街69號3樓", "Latitude": "24.816369", "Name": "北區區公所"}, "北埔鄉": {"Longitude": "121.056406", "Address": "新竹縣北埔鄉中山路20號", "Latitude": "24.701983", "Name": "北埔鄉公所"}, "五峰鄉": {"Longitude": "121.119535", "Address": "新竹縣五峰鄉大隘村95號", "Latitude": "24.631951", "Name": "五峰鄉公所"}, "尖石鄉": {"Longitude": "121.201341", "Address": "新竹縣尖石鄉嘉樂村36號", "Latitude": "24.705167", "Name": "尖石鄉公所"}, "芎林鄉": {"Longitude": "121.081855", "Address": "新竹縣芎林鄉文昌街51號", "Latitude": "24.773309", "Name": "芎林鄉公所"}}, "台東縣": {"達仁鄉": {"Longitude": "120.883153", "Address": "台東縣達仁鄉復興路14號", "Latitude": "22.296889", "Name": "達仁鄉公所"}, "長濱鄉": {"Longitude": "121.451556", "Address": "台東縣長濱鄉長濱村9號", "Latitude": "23.315166", "Name": "長濱鄉公所"}, "成功鎮": {"Longitude": "121.379839", "Address": "台東縣成功鎮中山路176號", "Latitude": "23.104939", "Name": "成功鎮公所"}, "卑南鄉": {"Longitude": "121.087023", "Address": "台東縣卑南鄉和平路111號", "Latitude": "22.782876", "Name": "卑南鄉公所"}, "延平鄉": {"Longitude": "121.085982", "Address": "台東縣延平鄉昇平路1號", "Latitude": "22.902537", "Name": "延平鄉公所"}, "東河鄉": {"Longitude": "121.302747", "Address": "台東縣東河鄉南東河311號", "Latitude": "22.969075", "Name": "東河鄉公所"}, "海端鄉": {"Longitude": "121.176561", "Address": "台東縣海端鄉山界43號", "Latitude": "23.102193", "Name": "海端鄉公所"}, "蘭嶼鄉": {"Longitude": "121.509696", "Address": "台東縣蘭嶼鄉椰油村295號", "Latitude": "22.057808", "Name": "蘭嶼鄉公所"}, "池上鄉": {"Longitude": "121.2151887", "Address": "台東縣池上鄉中山路101號", "Latitude": "23.1223101", "Name": "池上鄉公所"}, "鹿野鄉": {"Longitude": "121.136174", "Address": "台東縣鹿野鄉中華路二段139號", "Latitude": "22.914293", "Name": "鹿野鄉公所"}, "金峰鄉": {"Longitude": "120.960662", "Address": "台東縣金峰鄉嘉蘭村135號", "Latitude": "22.594669", "Name": "金峰鄉公所"}, "太麻里鄉": {"Longitude": "121.007585", "Address": "台東縣太麻里鄉民權路58號", "Latitude": "22.61562", "Name": "太麻里鄉公所"}, "關山鎮": {"Longitude": "121.163141", "Address": "台東縣關山鎮中山路54號", "Latitude": "23.047438", "Name": "關山鎮公所"}, "綠島鄉": {"Longitude": "121.468326", "Address": "台東縣綠島鄉南寮村194之1號", "Latitude": "22.66924", "Name": "綠島鄉公所"}, "台東市": {"Longitude": "121.146706", "Address": "台東縣台東市博愛路365號", "Latitude": "22.754414", "Name": "台東市公所"}, "大武鄉": {"Longitude": "120.890046", "Address": "台東縣大武鄉政通三街5號", "Latitude": "22.340537", "Name": "大武鄉公所"}}, "台中市": {"中區區": {"Longitude": "120.679578", "Address": "台中市中區成功路300號3樓", "Latitude": "24.143895", "Name": "中區區公所"}, "沙鹿區": {"Longitude": "120.566217", "Address": "台中市沙鹿區鎮政路8號", "Latitude": "24.233364", "Name": "沙鹿區公所"}, "霧峰區": {"Longitude": "120.700087", "Address": "台中市霧峰區大同路20號", "Latitude": "24.061575", "Name": "霧峰區公所"}, "大里區": {"Longitude": "120.677841", "Address": "台中市大里區大新街36號", "Latitude": "24.099469", "Name": "大里區公所"}, "東區區": {"Longitude": "120.703929", "Address": "台中市東區長福路245號", "Latitude": "24.136616", "Name": "東區區公所"}, "豐原區": {"Longitude": "120.718204", "Address": "台中市豐原區市政路2號", "Latitude": "24.241936", "Name": "豐原區公所"}, "梧棲區": {"Longitude": "120.5317", "Address": "台中市梧棲區中和街66號", "Latitude": "24.254906", "Name": "梧棲區公所"}, "南屯區": {"Longitude": "120.6443117", "Address": "台中市南屯區永春東路679號", "Latitude": "24.1344543", "Name": "南屯區公所"}, "龍井區": {"Longitude": "120.545077", "Address": "台中市龍井區沙田路四段247號", "Latitude": "24.180561", "Name": "龍井區公所"}, "東勢區": {"Longitude": "120.827923", "Address": "台中市東勢區豐勢路518號", "Latitude": "24.258563", "Name": "東勢區公所"}, "南區區": {"Longitude": "120.663642", "Address": "台中市南區工學路72號3樓", "Latitude": "24.117184", "Name": "南區區公所"}, "石岡區": {"Longitude": "120.780357", "Address": "台中市石岡區豐勢路1033號", "Latitude": "24.274953", "Name": "石岡區公所"}, "太平區": {"Longitude": "120.718335", "Address": "台中市太平區中平路144號", "Latitude": "24.126532", "Name": "太平區公所"}, "新社區": {"Longitude": "120.810017", "Address": "台中市新社區興社街二段28之1號", "Latitude": "24.234167", "Name": "新社區公所"}, "北屯區": {"Longitude": "120.686403", "Address": "台中市北屯區崇德路三段10號", "Latitude": "24.182685", "Name": "北屯區公所"}, "神岡區": {"Longitude": "120.661135", "Address": "台中市神岡區神岡路30號", "Latitude": "24.257673", "Name": "神岡區公所"}, "西區區": {"Longitude": "120.671073", "Address": "台中市西區金山路11號", "Latitude": "24.14121", "Name": "西區區公所"}, "大雅區": {"Longitude": "120.647836", "Address": "台中市大雅區雅環路二段301號", "Latitude": "24.229222", "Name": "大雅區公所"}, "和平區": {"Longitude": "120.884005", "Address": "台中市和平區東關路三段156號", "Latitude": "24.174704", "Name": "和平區公所"}, "后里區": {"Longitude": "120.710546", "Address": "台中市后里區公安路84號", "Latitude": "24.304935", "Name": "后里區公所"}, "大甲區": {"Longitude": "120.622468", "Address": "台中市大甲區民權路52號", "Latitude": "24.349083", "Name": "大甲區公所"}, "外埔區": {"Longitude": "120.654334", "Address": "台中市外埔區六分路390號", "Latitude": "24.332125", "Name": "外埔區公所"}, "烏日區": {"Longitude": "120.620772", "Address": "台中市烏日區新興路316號", "Latitude": "24.105448", "Name": "烏日區公所"}, "潭子區": {"Longitude": "120.705071", "Address": "台中市潭子區中山路二段239號", "Latitude": "24.209568", "Name": "潭子區公所"}, "北區區": {"Longitude": "120.6823894", "Address": "台中市北區永興街301號", "Latitude": "24.1659792", "Name": "北區區公所"}, "大安區": {"Longitude": "120.586576", "Address": "台中市大安區中山南路356號", "Latitude": "24.345948", "Name": "大安區公所"}, "清水區": {"Longitude": "120.559717", "Address": "台中市清水區鎮政路101號", "Latitude": "24.268156", "Name": "清水區公所"}, "大肚區": {"Longitude": "120.545405", "Address": "台中市大肚區沙田路二段646號", "Latitude": "24.15094", "Name": "大肚區公所"}, "西屯區": {"Longitude": "120.633777", "Address": "台中市西屯區市政北二路386號", "Latitude": "24.165446", "Name": "西屯區公所"}}, "彰化縣": {"二林鎮": {"Longitude": "120.374445", "Address": "彰化縣二林鎮斗苑路四段636號", "Latitude": "23.899974", "Name": "二林鎮公所"}, "伸港鄉": {"Longitude": "120.48614", "Address": "彰化縣伸港鄉大同村中興路二段201號", "Latitude": "24.1596029", "Name": "伸港鄉公所"}, "田尾鄉": {"Longitude": "120.525971", "Address": "彰化縣田尾鄉公所路201號", "Latitude": "23.892241", "Name": "田尾鄉公所"}, "大村鄉": {"Longitude": "120.547178", "Address": "彰化縣大村鄉中正西路338號", "Latitude": "23.99346", "Name": "大村鄉公所"}, "溪湖鎮": {"Longitude": "120.483226", "Address": "彰化縣溪湖鎮青雅路58號", "Latitude": "23.966437", "Name": "溪湖鎮公所"}, "和美鎮": {"Longitude": "120.49415", "Address": "彰化縣和美鎮鹿和路六段337號", "Latitude": "24.108558", "Name": "和美鎮公所"}, "北斗鎮": {"Longitude": "120.521862", "Address": "彰化縣北斗鎮公所街2號", "Latitude": "23.871383", "Name": "北斗鎮公所"}, "二水鄉": {"Longitude": "120.618919", "Address": "彰化縣二水鄉南通路二段764號", "Latitude": "23.806603", "Name": "二水鄉公所"}, "埔心鄉": {"Longitude": "120.5435427", "Address": "彰化縣埔心鄉義民村員鹿路2段344號", "Latitude": "23.9529856", "Name": "埔心鄉公所"}, "彰化市": {"Longitude": "120.542217", "Address": "彰化縣彰化市光復路74號", "Latitude": "24.080824", "Name": "彰化市公所"}, "芬園鄉": {"Longitude": "120.629327", "Address": "彰化縣芬園鄉芬草路二段300號", "Latitude": "24.013512", "Name": "芬園鄉公所"}, "鹿港鎮": {"Longitude": "120.435059", "Address": "彰化縣鹿港鎮民權路168號", "Latitude": "24.057213", "Name": "鹿港鎮公所"}, "田中鎮": {"Longitude": "120.580958", "Address": "彰化縣田中鎮斗中路一段198號", "Latitude": "23.861483", "Name": "田中鎮公所"}, "埔鹽鄉": {"Longitude": "120.4636578", "Address": "彰化縣埔鹽鄉好修村中正路192號", "Latitude": "24.000442", "Name": "埔鹽鄉公所"}, "福興鄉": {"Longitude": "120.443823", "Address": "彰化縣福興鄉彰鹿路七段495號", "Latitude": "24.047875", "Name": "福興鄉公所"}, "竹塘鄉": {"Longitude": "120.427883", "Address": "彰化縣竹塘鄉竹林路一段305號", "Latitude": "23.860555", "Name": "竹塘鄉公所"}, "永靖鄉": {"Longitude": "120.547799", "Address": "彰化縣永靖鄉瑚璉路230號", "Latitude": "23.924643", "Name": "永靖鄉公所"}, "員林市": {"Longitude": "120.574348", "Address": "彰化縣員林市三民街18號", "Latitude": "23.958993", "Name": "員林市公所"}, "線西鄉": {"Longitude": "120.470656", "Address": "彰化縣線西鄉和線路983號", "Latitude": "24.130668", "Name": "線西鄉公所"}, "社頭鄉": {"Longitude": "120.585798", "Address": "彰化縣社頭鄉社斗路一段295號", "Latitude": "23.896842", "Name": "社頭鄉公所"}, "溪州鄉": {"Longitude": "120.498976", "Address": "彰化縣溪州鄉溪下路四段560號", "Latitude": "23.851619", "Name": "溪州鄉公所"}, "花壇鄉": {"Longitude": "120.538258", "Address": "彰化縣花壇鄉中山路二段182號", "Latitude": "24.029658", "Name": "花壇鄉公所"}, "大城鄉": {"Longitude": "120.3208973", "Address": "彰化縣大城鄉東城村中平路185號", "Latitude": "23.852314", "Name": "大城鄉公所"}, "埤頭鄉": {"Longitude": "120.462115", "Address": "彰化縣埤頭鄉斗苑西路138號", "Latitude": "23.891594", "Name": "埤頭鄉公所"}, "芳苑鄉": {"Longitude": "120.320389", "Address": "彰化縣芳苑鄉斗苑路芳苑段202號", "Latitude": "23.924354", "Name": "芳苑鄉公所"}, "秀水鄉": {"Longitude": "120.502818", "Address": "彰化縣秀水鄉中山路290號", "Latitude": "24.035401", "Name": "秀水鄉公所"}}, "連江縣": {"南竿鄉": {"Longitude": "119.937915", "Address": "連江縣南竿鄉清水村132號", "Latitude": "26.147777", "Name": "南竿鄉公所"}, "北竿鄉": {"Longitude": "119.997384", "Address": "連江縣北竿鄉塘岐村258號", "Latitude": "26.225117", "Name": "北竿鄉公所"}, "莒光鄉": {"Longitude": "119.935024", "Address": "連江縣莒光鄉青帆村74之2號", "Latitude": "25.971849", "Name": "莒光鄉公所"}, "東引鄉": {"Longitude": "120.4897676", "Address": "連江縣東引鄉中柳村121號", "Latitude": "26.3674223", "Name": "東引鄉公所"}}, "苗栗縣": {"三灣鄉": {"Longitude": "120.821427", "Address": "苗栗縣三灣鄉親民路19號", "Latitude": "24.560159", "Name": "三灣鄉公所"}, "公館鄉": {"Longitude": "120.828461", "Address": "苗栗縣公館鄉玉泉村368之10號", "Latitude": "24.505993", "Name": "公館鄉公所"}, "苗栗市": {"Longitude": "120.819018", "Address": "苗栗縣苗栗市府前路76號", "Latitude": "24.561677", "Name": "苗栗市公所"}, "南庄鄉": {"Longitude": "121.000339", "Address": "苗栗縣南庄鄉大同路3號", "Latitude": "24.597065", "Name": "南庄鄉公所"}, "通霄鎮": {"Longitude": "120.684249", "Address": "苗栗縣通霄鎮中正路8號", "Latitude": "24.49128", "Name": "通霄鎮公所"}, "頭份鎮": {"Longitude": "120.911944", "Address": "苗栗縣頭份鎮中山路232號", "Latitude": "24.686107", "Name": "頭份鎮公所"}, "造橋鄉": {"Longitude": "120.865131", "Address": "苗栗縣造橋鄉老庄3之1號", "Latitude": "24.638656", "Name": "造橋鄉公所"}, "頭屋鄉": {"Longitude": "120.851087", "Address": "苗栗縣頭屋鄉中正街48號", "Latitude": "24.577695", "Name": "頭屋鄉公所"}, "後龍鎮": {"Longitude": "120.791953", "Address": "苗栗縣後龍鎮中山路152號", "Latitude": "24.613707", "Name": "後龍鎮公所"}, "三義鄉": {"Longitude": "120.770286", "Address": "苗栗縣三義鄉復興路30號", "Latitude": "24.412933", "Name": "三義鄉公所"}, "苑裡鎮": {"Longitude": "120.653238", "Address": "苗栗縣苑裡鎮信義路1號", "Latitude": "24.439767", "Name": "苑裡鎮公所"}, "竹南鎮": {"Longitude": "120.873398", "Address": "苗栗縣竹南鎮中正路112號", "Latitude": "24.683815", "Name": "竹南鎮公所"}, "西湖鄉": {"Longitude": "120.757081", "Address": "苗栗縣西湖鄉龍洞村5號", "Latitude": "24.556761", "Name": "西湖鄉公所"}, "銅鑼鄉": {"Longitude": "120.7878718", "Address": "苗栗縣銅鑼鄉永樂路15號", "Latitude": "24.4870514", "Name": "銅鑼鄉公所"}, "泰安鄉": {"Longitude": "120.908172", "Address": "苗栗縣泰安鄉洗水坑69號", "Latitude": "24.447196", "Name": "泰安鄉公所"}, "獅潭鄉": {"Longitude": "120.920501", "Address": "苗栗縣獅潭鄉新店村130之2號", "Latitude": "24.539467", "Name": "獅潭鄉公所"}, "卓蘭鎮": {"Longitude": "120.824515", "Address": "苗栗縣卓蘭鎮中山路127號", "Latitude": "24.31305", "Name": "卓蘭鎮公所"}, "大湖鄉": {"Longitude": "120.8661603", "Address": "苗栗縣大湖鄉明湖村中正路80號", "Latitude": "24.4233828", "Name": "大湖鄉公所"}}, "台南市": {"六甲區": {"Longitude": "120.34836", "Address": "台南市六甲區中山路202號", "Latitude": "23.231371", "Name": "六甲區公所"}, "鹽水區": {"Longitude": "120.266119", "Address": "台南市鹽水區中山路47號", "Latitude": "23.319945", "Name": "鹽水區公所"}, "大內區": {"Longitude": "120.362287", "Address": "台南市大內區大內里1號", "Latitude": "23.119599", "Name": "大內區公所"}, "北門區": {"Longitude": "120.121535", "Address": "台南市北門區舊埕108號", "Latitude": "23.25483", "Name": "北門區公所"}, "柳營區": {"Longitude": "120.312329", "Address": "台南市柳營區柳營路二段59號", "Latitude": "23.27782", "Name": "柳營區公所"}, "新化區": {"Longitude": "120.310896", "Address": "台南市新化區中山路130號", "Latitude": "23.038541", "Name": "新化區公所"}, "東區區": {"Longitude": "120.224004", "Address": "台南市東區崇學路100號", "Latitude": "22.9802421", "Name": "東區區公所"}, "永康區": {"Longitude": "120.25689", "Address": "台南市永康區中山南路655號", "Latitude": "23.02627", "Name": "永康區公所"}, "龍崎區": {"Longitude": "120.3649712", "Address": "台南市龍崎區崎頂里新市子103號", "Latitude": "22.9632926", "Name": "龍崎區公所"}, "善化區": {"Longitude": "120.296741", "Address": "台南市善化區建國路190號", "Latitude": "23.132392", "Name": "善化區公所"}, "學甲區": {"Longitude": "120.1823338", "Address": "台南市學甲區華宗路313號", "Latitude": "23.2304693", "Name": "學甲區公所"}, "關廟區": {"Longitude": "120.327667", "Address": "台南市關廟區中正路998號", "Latitude": "22.962749", "Name": "關廟區公所"}, "楠西區": {"Longitude": "120.463827", "Address": "台南市楠西區中正路230號", "Latitude": "23.125206", "Name": "楠西區公所"}, "白河區": {"Longitude": "120.415752", "Address": "台南市白河區三民路381號", "Latitude": "23.351289", "Name": "白河區公所"}, "南區區": {"Longitude": "120.1887336", "Address": "台南市南區明興路2號", "Latitude": "22.9611651", "Name": "南區區公所"}, "將軍區": {"Longitude": "120.16326", "Address": "台南市將軍區忠興里190號", "Latitude": "23.201848", "Name": "將軍區公所"}, "新營區": {"Longitude": "120.316576", "Address": "台南市新營區中正路30號", "Latitude": "23.310277", "Name": "新營區公所"}, "歸仁區": {"Longitude": "120.314588", "Address": "台南市歸仁區中山路二段2號", "Latitude": "22.964246", "Name": "歸仁區公所"}, "安平區": {"Longitude": "120.1689012", "Address": "台南市安平區育平路316號", "Latitude": "22.9945327", "Name": "安平區公所"}, "左鎮區": {"Longitude": "120.39791", "Address": "台南市左鎮區中正里171之4號", "Latitude": "23.040792", "Name": "左鎮區公所"}, "山上區": {"Longitude": "120.350477", "Address": "台南市山上區南洲里325號", "Latitude": "23.1036373", "Name": "山上區公所"}, "後壁區": {"Longitude": "120.357963", "Address": "台南市後壁區後壁里129號", "Latitude": "23.363214", "Name": "後壁區公所"}, "西港區": {"Longitude": "120.205131", "Address": "台南市西港區文化路1號", "Latitude": "23.123657", "Name": "西港區公所"}, "南化區": {"Longitude": "120.478965", "Address": "台南市南化區南化里230號", "Latitude": "23.042615", "Name": "南化區公所"}, "佳里區": {"Longitude": "120.17704", "Address": "台南市佳里區忠孝路5號", "Latitude": "23.165256", "Name": "佳里區公所"}, "七股區": {"Longitude": "120.144496", "Address": "台南市七股區大埕里377號", "Latitude": "23.145361", "Name": "七股區公所"}, "東山區": {"Longitude": "120.335293", "Address": "台南市東山區東山里225號", "Latitude": "23.309732", "Name": "東山區公所"}, "北區區": {"Longitude": "120.202947", "Address": "台南市北區成功路238巷7號", "Latitude": "22.999579", "Name": "北區區公所"}, "下營區": {"Longitude": "120.264571", "Address": "台南市下營區中山路一段170號", "Latitude": "23.235807", "Name": "下營區公所"}, "安南區": {"Longitude": "120.184714", "Address": "台南市安南區安中路二段308號", "Latitude": "23.0472321", "Name": "安南區公所"}, "官田區": {"Longitude": "120.3154919", "Address": "台南市官田區中山路一段132號", "Latitude": "23.19304", "Name": "官田區公所"}, "中西區": {"Longitude": "120.2056", "Address": "台南市中西區開山路1號", "Latitude": "22.99224", "Name": "中西區公所"}, "新市區": {"Longitude": "120.294888", "Address": "台南市新市區中興街12號", "Latitude": "23.07861", "Name": "新市區公所"}, "麻豆區": {"Longitude": "120.258445", "Address": "台南市麻豆區忠孝路250號", "Latitude": "23.184947", "Name": "麻豆區公所"}, "安定區": {"Longitude": "120.237118", "Address": "台南市安定區安定里59號", "Latitude": "23.121593", "Name": "安定區公所"}, "仁德區": {"Longitude": "120.181784", "Address": "台南市仁德區中正路三段5號", "Latitude": "22.9723374", "Name": "仁德區公所"}, "玉井區": {"Longitude": "120.483893", "Address": "台南市玉井區中正路27號", "Latitude": "23.178184", "Name": "玉井區公所"}}, "雲林縣": {"麥寮鄉": {"Longitude": "120.251733", "Address": "雲林縣麥寮鄉中興路117號", "Latitude": "23.753805", "Name": "麥寮鄉公所"}, "褒忠鄉": {"Longitude": "120.303684", "Address": "雲林縣褒忠鄉中正路451號", "Latitude": "23.691033", "Name": "褒忠鄉公所"}, "虎尾鎮": {"Longitude": "120.444991", "Address": "雲林縣虎尾鎮行政路6號", "Latitude": "23.70948", "Name": "虎尾鎮公所"}, "斗南鎮": {"Longitude": "120.47697", "Address": "雲林縣斗南鎮文昌路200號", "Latitude": "23.679781", "Name": "斗南鎮公所"}, "古坑鄉": {"Longitude": "120.561906", "Address": "雲林縣古坑鄉中山路40號", "Latitude": "23.642609", "Name": "古坑鄉公所"}, "二崙鄉": {"Longitude": "120.4129829", "Address": "雲林縣二崙鄉崙西村中興路5號", "Latitude": "23.7711337", "Name": "二崙鄉公所"}, "土庫鎮": {"Longitude": "120.3897467", "Address": "雲林縣土庫鎮石廟里10鄰中興路175號", "Latitude": "23.682025", "Name": "土庫鎮公所"}, "四湖鄉": {"Longitude": "120.224342", "Address": "雲林縣四湖鄉中山西路44號", "Latitude": "23.63802", "Name": "四湖鄉公所"}, "東勢鄉": {"Longitude": "120.252618", "Address": "雲林縣東勢鄉所前街3號", "Latitude": "23.67494", "Name": "東勢鄉公所"}, "口湖鄉": {"Longitude": "120.185747", "Address": "雲林縣口湖鄉中正路一段118號", "Latitude": "23.582642", "Name": "口湖鄉公所"}, "西螺鎮": {"Longitude": "120.465507", "Address": "雲林縣西螺鎮光復西路20號", "Latitude": "23.797935", "Name": "西螺鎮公所"}, "北港鎮": {"Longitude": "120.302446", "Address": "雲林縣北港鎮北辰路1號", "Latitude": "23.575924", "Name": "北港鎮公所"}, "元長鄉": {"Longitude": "120.314859", "Address": "雲林縣元長鄉仁愛街2號", "Latitude": "23.649667", "Name": "元長鄉公所"}, "林內鄉": {"Longitude": "120.6129168", "Address": "雲林縣林內鄉中正路340號", "Latitude": "23.7561758", "Name": "林內鄉公所"}, "斗六市": {"Longitude": "120.52711", "Address": "雲林縣斗六市府文路38號", "Latitude": "23.697122", "Name": "斗六市公所"}, "崙背鄉": {"Longitude": "120.359142", "Address": "雲林縣崙背鄉行政街1號", "Latitude": "23.761909", "Name": "崙背鄉公所"}, "水林鄉": {"Longitude": "120.245951", "Address": "雲林縣水林鄉水林路12號", "Latitude": "23.572703", "Name": "水林鄉公所"}, "莿桐鄉": {"Longitude": "120.502507", "Address": "雲林縣莿桐鄉和平路53號", "Latitude": "23.761008", "Name": "莿桐鄉公所"}, "台西鄉": {"Longitude": "120.195501", "Address": "雲林縣台西鄉中山路293號", "Latitude": "23.700599", "Name": "台西鄉公所"}, "大埤鄉": {"Longitude": "120.431408", "Address": "雲林縣大埤鄉中山路8號", "Latitude": "23.646045", "Name": "大埤鄉公所"}}, "基隆市": {"中正區": {"Longitude": "121.767771", "Address": "基隆市中正區中正路674號", "Latitude": "25.151537", "Name": "中正區公所"}, "信義區": {"Longitude": "121.752494", "Address": "基隆市信義區信二路155號", "Latitude": "25.129429", "Name": "信義區公所"}, "七堵區": {"Longitude": "121.713219", "Address": "基隆市七堵區自治街15號", "Latitude": "25.095878", "Name": "七堵區公所"}, "中山區": {"Longitude": "121.729552", "Address": "基隆市中山區文化路168號2樓", "Latitude": "25.152899", "Name": "中山區公所"}, "安樂區": {"Longitude": "121.723327", "Address": "基隆市安樂區安樂路二段164號2樓", "Latitude": "25.121047", "Name": "安樂區公所"}, "暖暖區": {"Longitude": "121.7337389", "Address": "基隆市暖暖區東勢街2號", "Latitude": "25.1001834", "Name": "暖暖區公所"}, "仁愛區": {"Longitude": "121.737475", "Address": "基隆市仁愛區光一路28號2樓", "Latitude": "25.125919", "Name": "仁愛區公所"}}, "南投縣": {"集集鎮": {"Longitude": "120.785468", "Address": "南投縣集集鎮民生路61號", "Latitude": "23.828415", "Name": "集集鎮公所"}, "仁愛鄉": {"Longitude": "121.13275", "Address": "南投縣仁愛鄉仁和路29號", "Latitude": "24.020701", "Name": "仁愛鄉公所"}, "名間鄉": {"Longitude": "120.702985", "Address": "南投縣名間鄉彰南路40號", "Latitude": "23.838216", "Name": "名間鄉公所"}, "南投市": {"Longitude": "120.687241", "Address": "南投縣南投市玉井街5號", "Latitude": "23.911569", "Name": "南投市公所"}, "魚池鄉": {"Longitude": "120.93561", "Address": "南投縣魚池鄉秀水巷33號", "Latitude": "23.895751", "Name": "魚池鄉公所"}, "國姓鄉": {"Longitude": "120.857491", "Address": "南投縣國姓鄉國姓路267號", "Latitude": "24.039943", "Name": "國姓鄉公所"}, "草屯鎮": {"Longitude": "120.680282", "Address": "南投縣草屯鎮草鞋墩一街8號", "Latitude": "23.973685", "Name": "草屯鎮公所"}, "埔里鎮": {"Longitude": "120.969214", "Address": "南投縣埔里鎮中山路二段239號", "Latitude": "23.966574", "Name": "埔里鎮公所"}, "竹山鎮": {"Longitude": "120.671699", "Address": "南投縣竹山鎮公所路100號", "Latitude": "23.757863", "Name": "竹山鎮公所"}, "信義鄉": {"Longitude": "120.854557", "Address": "南投縣信義鄉玉山路47號", "Latitude": "23.696797", "Name": "信義鄉公所"}, "中寮鄉": {"Longitude": "120.7659918", "Address": "南投縣中寮鄉永平村永平路270號", "Latitude": "23.8790949", "Name": "中寮鄉公所"}, "鹿谷鄉": {"Longitude": "120.753444", "Address": "南投縣鹿谷鄉中正路二段73號", "Latitude": "23.745777", "Name": "鹿谷鄉公所"}, "水里鄉": {"Longitude": "120.856057", "Address": "南投縣水里鄉民生路112號", "Latitude": "23.811301", "Name": "水里鄉公所"}}, "花蓮縣": {"富里鄉": {"Longitude": "121.250253", "Address": "花蓮縣富里鄉中山路376號", "Latitude": "23.179448", "Name": "富里鄉公所"}, "秀林鄉": {"Longitude": "121.623746", "Address": "花蓮縣秀林鄉秀林村62號", "Latitude": "24.118395", "Name": "秀林鄉公所"}, "瑞穗鄉": {"Longitude": "121.3758823", "Address": "花蓮縣瑞穗鄉成功南路19號", "Latitude": "23.4964368", "Name": "瑞穗鄉公所"}, "玉里鎮": {"Longitude": "121.31515", "Address": "花蓮縣玉里鎮中正路148號", "Latitude": "23.335584", "Name": "玉里鎮公所"}, "壽豐鄉": {"Longitude": "121.508813", "Address": "花蓮縣壽豐鄉壽山路26號", "Latitude": "23.87031", "Name": "壽豐鄉公所"}, "萬榮鄉": {"Longitude": "121.411015", "Address": "花蓮縣萬榮鄉萬榮村19號", "Latitude": "23.714878", "Name": "萬榮鄉公所"}, "鳳林鎮": {"Longitude": "121.4514", "Address": "花蓮縣鳳林鎮光華路124號", "Latitude": "23.744793", "Name": "鳳林鎮公所"}, "光復鄉": {"Longitude": "121.423306", "Address": "花蓮縣光復鄉中華路257號", "Latitude": "23.669342", "Name": "光復鄉公所"}, "卓溪鄉": {"Longitude": "121.303484", "Address": "花蓮縣卓溪鄉中正70號", "Latitude": "23.346502", "Name": "卓溪鄉公所"}, "吉安鄉": {"Longitude": "121.5636438", "Address": "花蓮縣吉安鄉吉安路二段116", "Latitude": "23.9729455", "Name": "吉安鄉公所"}, "花蓮市": {"Longitude": "121.606771", "Address": "花蓮縣花蓮市林森路252號", "Latitude": "23.982065", "Name": "花蓮市公所"}, "新城鄉": {"Longitude": "121.6043921", "Address": "花蓮縣新城鄉大漢村光復路570號", "Latitude": "24.0393408", "Name": "新城鄉公所"}, "豐濱鄉": {"Longitude": "121.521078", "Address": "花蓮縣豐濱鄉光豐路32號", "Latitude": "23.601181", "Name": "豐濱鄉公所"}}, "高雄市": {"永安區": {"Longitude": "120.225479", "Address": "高雄市永安區永安路32號", "Latitude": "22.818571", "Name": "永安區公所"}, "鳳山區": {"Longitude": "120.362525", "Address": "高雄市鳳山區經武路30號", "Latitude": "22.627075", "Name": "鳳山區公所"}, "田寮區": {"Longitude": "120.359418", "Address": "高雄市田寮區崗安路71號", "Latitude": "22.871974", "Name": "田寮區公所"}, "仁武區": {"Longitude": "120.347906", "Address": "高雄市仁武區中正路80號", "Latitude": "22.701463", "Name": "仁武區公所"}, "前鎮區": {"Longitude": "120.318257", "Address": "高雄市前鎮區康定路151號2樓", "Latitude": "22.586507", "Name": "前鎮區公所"}, "那瑪夏區": {"Longitude": "120.734995", "Address": "高雄市那瑪夏區鞍山巷1號", "Latitude": "23.274298", "Name": "那瑪夏區公所"}, "彌陀區": {"Longitude": "120.288389", "Address": "高雄市彌陀區中華路4號", "Latitude": "22.790959", "Name": "彌陀區公所"}, "左營區": {"Longitude": "120.295124", "Address": "高雄市左營區左營大路479號4樓", "Latitude": "22.689844", "Name": "左營區公所"}, "阿蓮區": {"Longitude": "120.327486", "Address": "高雄市阿蓮區民生路94號", "Latitude": "22.88263", "Name": "阿蓮區公所"}, "橋頭區": {"Longitude": "120.304997", "Address": "高雄市橋頭區隆豐路1號", "Latitude": "22.758431", "Name": "橋頭區公所"}, "大寮區": {"Longitude": "120.395698", "Address": "高雄市大寮區鳳林三路492號", "Latitude": "22.605581", "Name": "大寮區公所"}, "三民區": {"Longitude": "120.299817", "Address": "高雄市三民區哈爾濱街215號4樓", "Latitude": "22.64767", "Name": "三民區公所"}, "六龜區": {"Longitude": "120.633319", "Address": "高雄市六龜區民治路18號", "Latitude": "22.998081", "Name": "六龜區公所"}, "前金區": {"Longitude": "120.294277", "Address": "高雄市前金區自強二路169號3樓", "Latitude": "22.627554", "Name": "前金區公所"}, "杉林區": {"Longitude": "120.540148", "Address": "高雄市杉林區山仙路6號", "Latitude": "22.972299", "Name": "杉林區公所"}, "美濃區": {"Longitude": "120.541949", "Address": "高雄市美濃區美中路260號", "Latitude": "22.894795", "Name": "美濃區公所"}, "茂林區": {"Longitude": "120.664443", "Address": "高雄市茂林區茂林巷11號", "Latitude": "22.884372", "Name": "茂林區公所"}, "燕巢區": {"Longitude": "120.3590067", "Address": "高雄市燕巢區中安路1號", "Latitude": "22.7878161", "Name": "燕巢區公所"}, "楠梓區": {"Longitude": "120.3263342", "Address": "高雄市楠梓區楠梓新路264號", "Latitude": "22.728413", "Name": "楠梓區公所"}, "岡山區": {"Longitude": "120.294941", "Address": "高雄市岡山區岡山路343號", "Latitude": "22.797352", "Name": "岡山區公所"}, "路竹區": {"Longitude": "120.259518", "Address": "高雄市路竹區國昌路76號", "Latitude": "22.854375", "Name": "路竹區公所"}, "大社區": {"Longitude": "120.346875", "Address": "高雄市大社區自強街1號", "Latitude": "22.730507", "Name": "大社區公所"}, "湖內區": {"Longitude": "120.211533", "Address": "高雄市湖內區中正路二段77號", "Latitude": "22.908466", "Name": "湖內區公所"}, "大樹區": {"Longitude": "120.432995", "Address": "高雄市大樹區中興北路120號", "Latitude": "22.693375", "Name": "大樹區公所"}, "新興區": {"Longitude": "120.309893", "Address": "高雄市新興區中正三路34號4樓", "Latitude": "22.631022", "Name": "新興區公所"}, "茄萣區": {"Longitude": "120.183456", "Address": "高雄市茄萣區濱海路四段27號", "Latitude": "22.906797", "Name": "茄萣區公所"}, "旗津區": {"Longitude": "120.267882", "Address": "高雄市旗津區旗津三路1100號", "Latitude": "22.610951", "Name": "旗津區公所"}, "鼓山區": {"Longitude": "120.281013", "Address": "高雄市鼓山區鼓山二路166號2樓", "Latitude": "22.636793", "Name": "鼓山區公所"}, "桃源區": {"Longitude": "120.765965", "Address": "高雄市桃源區北進巷1號", "Latitude": "23.160313", "Name": "桃源區公所"}, "甲仙區": {"Longitude": "120.587627", "Address": "高雄市甲仙區中山路50號", "Latitude": "23.083778", "Name": "甲仙區公所"}, "小港區": {"Longitude": "120.3380368", "Address": "高雄市小港區小港路158號", "Latitude": "22.5652134", "Name": "小港區公所"}, "鹽埕區": {"Longitude": "120.286716", "Address": "高雄市鹽埕區大仁路6號9樓", "Latitude": "22.624673", "Name": "鹽埕區公所"}, "梓官區": {"Longitude": "120.267318", "Address": "高雄市梓官區梓官路258號", "Latitude": "22.760665", "Name": "梓官區公所"}, "旗山區": {"Longitude": "120.48349", "Address": "高雄市旗山區延平一路499號", "Latitude": "22.888642", "Name": "旗山區公所"}, "林園區": {"Longitude": "120.394881", "Address": "高雄市林園區林園北路179號", "Latitude": "22.507588", "Name": "林園區公所"}, "鳥松區": {"Longitude": "120.364803", "Address": "高雄市鳥松區中正路98號", "Latitude": "22.644529", "Name": "鳥松區公所"}, "內門區": {"Longitude": "120.466006", "Address": "高雄市內門區內門20號", "Latitude": "22.944861", "Name": "內門區公所"}, "苓雅區": {"Longitude": "120.312194", "Address": "高雄市苓雅區民權一路85號4樓", "Latitude": "22.621759", "Name": "苓雅區公所"}}, "桃園市": {"觀音鄉": {"Longitude": "121.08175", "Address": "桃園市觀音區中山路8號", "Latitude": "25.036532", "Name": "觀音鄉公所"}, "龜山鄉": {"Longitude": "121.337877", "Address": "桃園市龜山區中山街26號", "Latitude": "24.992532", "Name": "龜山鄉公所"}, "復興鄉": {"Longitude": "121.351098", "Address": "桃園市復興區中正路20號", "Latitude": "24.814771", "Name": "復興鄉公所"}, "八德市": {"Longitude": "121.284599", "Address": "桃園市八德區中山路47號", "Latitude": "24.928918", "Name": "八德市公所"}, "楊梅市": {"Longitude": "121.156189", "Address": "桃園市楊梅市大成路2號", "Latitude": "24.946745", "Name": "楊梅市公所"}, "大園鄉": {"Longitude": "121.19546", "Address": "桃園市大園區中正西路12號", "Latitude": "25.063856", "Name": "大園鄉公所"}, "新屋鄉": {"Longitude": "121.105542", "Address": "桃園市新屋區中山路265號", "Latitude": "24.972476", "Name": "新屋鄉公所"}, "大溪鎮": {"Longitude": "121.28715", "Address": "桃園市大溪區普濟路11號", "Latitude": "24.880508", "Name": "大溪鎮公所"}, "中壢市": {"Longitude": "121.225138", "Address": "桃園市中壢區環北路380號", "Latitude": "24.965812", "Name": "中壢市公所"}, "平鎮區": {"Longitude": "121.2181718", "Address": "桃園市平鎮區振興路5號", "Latitude": "24.9454616", "Name": "平鎮區公所"}, "龍潭鄉": {"Longitude": "121.216962", "Address": "桃園市龍潭區中正路210號", "Latitude": "24.864562", "Name": "龍潭鄉公所"}, "蘆竹鄉": {"Longitude": "121.295199", "Address": "桃園市蘆竹區南崁路150號", "Latitude": "25.04699", "Name": "蘆竹鄉公所"}, "桃園市": {"Longitude": "121.30168", "Address": "桃園市桃園區縣府路7號", "Latitude": "24.993862", "Name": "桃園市公所"}}, "宜蘭縣": {"大同鄉": {"Longitude": "121.6091", "Address": "宜蘭縣大同鄉朝陽38號", "Latitude": "24.677445", "Name": "大同鄉公所"}, "頭城鎮": {"Longitude": "121.823408", "Address": "宜蘭縣頭城鎮纘祥路88號", "Latitude": "24.859303", "Name": "頭城鎮公所"}, "員山鄉": {"Longitude": "121.723254", "Address": "宜蘭縣員山鄉員山路一段322號", "Latitude": "24.743394", "Name": "員山鄉公所"}, "礁溪鄉": {"Longitude": "121.7714318", "Address": "宜蘭縣礁溪鄉中山路二段3號", "Latitude": "24.8235901", "Name": "礁溪鄉公所"}, "冬山鄉": {"Longitude": "121.792198", "Address": "宜蘭縣冬山鄉冬山路100號", "Latitude": "24.634636", "Name": "冬山鄉公所"}, "壯圍鄉": {"Longitude": "121.784933", "Address": "宜蘭縣壯圍鄉壯志路1號", "Latitude": "24.746322", "Name": "壯圍鄉公所"}, "五結鄉": {"Longitude": "121.79829", "Address": "宜蘭縣五結鄉五結路二段343號", "Latitude": "24.684772", "Name": "五結鄉公所"}, "羅東鎮": {"Longitude": "121.7669425", "Address": "宜蘭縣羅東鎮中興路3號", "Latitude": "24.6768563", "Name": "羅東鎮公所"}, "三星鄉": {"Longitude": "121.653904", "Address": "宜蘭縣三星鄉成功路67號", "Latitude": "24.665478", "Name": "三星鄉公所"}, "南澳鄉": {"Longitude": "121.803714", "Address": "宜蘭縣南澳鄉蘇花路二段381號", "Latitude": "24.465996", "Name": "南澳鄉公所"}, "蘇澳鎮": {"Longitude": "121.842036", "Address": "宜蘭縣蘇澳鎮蘇港路215號", "Latitude": "24.594379", "Name": "蘇澳鎮公所"}, "宜蘭市": {"Longitude": "121.7534487", "Address": "宜蘭縣宜蘭市中山路二段432號", "Latitude": "24.7520097", "Name": "宜蘭市公所"}}}